,City,Longitude,Latitude,DeltaSeconds
北京市,平谷,117.1,40.13,-696
,密云,116.85,40.37,-756
,通县,116.67,39.92,-799
,顺义,116.65,40.13,-804
,怀柔,116.62,40.32,-811
,北京,116.46,39.92,-850
,大兴,116.33,39.73,-881
,昌平,116.2,40.22,-912
,房山,115.98,39.72,-965
,延庆,115.97,40.47,-967
天津市,宁河,117.83,39.33,-521
,蓟县,117.4,40.05,-624
,宝坻,117.3,39.75,-648
,天津,117.2,39.13,-672
,武清,117.05,39.4,-708
,静海,116.92,38.93,-739
上海市,南汇,121.76,31.05,422
,川沙,121.7,31.19,408
,宝山,121.48,31.41,355
,上海,121.48,31.22,355
,奉贤,121.46,30.92,350
,崇明,121.4,31.73,336
,松江,121.24,31,298
,嘉定,121.24,31.4,298
,金山,121.16,30.89,278
,青浦,121.1,31.15,264
重庆市,巫山,109.86,31.1,-2434
,巫溪,109.6,31.42,-2496
,奉节,109.52,31.06,-2515
,秀山,108.97,28.47,-2647
,云阳,108.89,30.99,-2666
,黔江,108.81,29.53,-2686
,西阳,108.75,28.85,-2700
,武隆,108.72,29.29,-2707
,城口,108.67,31.98,-2719
,开县,108.39,31.23,-2786
,万州,108.35,30.83,-2796
,彭水,108.19,29.29,-2834
,石柱,108.13,29.98,-2849
,忠县,108.03,30.33,-2873
,梁平,107.78,30.66,-2933
,丰都,107.7,29.89,-2952
,涪陵,107.36,29.7,-3034
,垫江,107.34,30.36,-3038
,南川,107.13,29.15,-3089
,南桐,107.04,29.86,-3110
,长寿,106.64,29.01,-3206
,綦江,106.56,29.41,-3226
,重庆,106.54,29.59,-3230
,合川,106.28,29.97,-3293
,潼南,106.22,30.03,-3307
,荣昌,106.21,29.62,-3310
,壁山,106.03,29.86,-3353
,万盛,105.91,29.38,-3382
,铜梁,105.8,30.16,-3408
,永川,105.71,29.75,-3430
,大足,105.59,29.4,-3458
河北省,秦皇岛,119.57,39.95,-103
,抚宁,119.22,39.88,-187
,昌黎,119.15,39.72,-204
,青龙,118.93,40.43,-257
,乐亭,118.9,39.43,-264
,卢龙,118.85,39.89,-276
,滦县,118.73,39.74,-305
,迁安,118.69,40.02,-314
,平泉,118.68,41.02,-317
,滦南,118.67,39.49,-319
,唐海,118.54,39.31,-350
,宽城,118.47,40.62,-367
,迁西,118.3,40.15,-408
,丰润,118.13,39.82,-449
,丰南,118.1,39.58,-456
,唐山,118.02,39.63,-475
,遵化,117.97,40.2,-487
,承德,117.93,40.97,-497
,玉田,117.9,39.9,-504
,海兴,117.85,38.17,-516
,围场,117.72,41.95,-547
,隆化,117.7,41.32,-552
,滦平,117.53,40.95,-593
,兴隆,117.48,40.42,-605
,黄骅,117.33,38.4,-641
,盐山,117.22,38.07,-667
,孟村,117.1,38.06,-696
,三河,117.06,39.97,-706
,香河,117,39.76,-720
,大厂,116.98,39.98,-725
,沧州,116.83,38.33,-761
,青县,116.8,38.58,-768
,廊坊,116.7,39.53,-792
,南皮,116.7,38.05,-792
,安次,116.69,39.52,-794
,丰宁,116.63,41.2,-809
,大城,116.63,38.7,-809
,泊头,116.56,38.08,-826
,东光,116.52,37.89,-835
,永清,116.48,39.32,-845
,文安,116.45,38.87,-852
,霸县,116.38,39.12,-869
,吴桥,116.37,37.65,-871
,固安,116.29,39.44,-890
,交河,116.27,38.02,-895
,景县,116.26,37.69,-898
,阜城,116.14,37.87,-926
,献县,116.12,38.2,-931
,雄县,116.1,38.98,-936
,任丘,116.08,38.72,-941
,河间,116.07,38.45,-943
,涿县,115.98,39.48,-965
,故城,115.96,37.36,-970
,武强,115.96,38.03,-970
,安新,115.92,38.92,-979
,武邑,115.9,37.81,-984
,容城,115.86,39.06,-994
,新城,115.84,39.34,-998
,肃宁,115.82,38.43,-1003
,赤城,115.82,40.92,-1003
,高阳,115.78,38.68,-1013
,定兴,115.78,39.28,-1013
,饶阳,115.74,38.24,-1022
,枣强,115.72,37.52,-1027
,衡水,115.72,37.72,-1027
,涞水,115.71,39.39,-1030
,沽源,115.68,41.68,-1037
,清河,115.67,37.07,-1039
,徐水,115.65,39.02,-1044
,蠡县,115.58,38.49,-1061
,冀县,115.56,37.59,-1066
,深县,115.56,38.02,-1066
,怀来,115.54,40.4,-1070
,临西,115.5,36.87,-1080
,安平,115.5,38.22,-1080
,易县,115.49,39.35,-1082
,保定,115.48,38.85,-1085
,清苑,115.47,38.76,-1087
,博野,115.46,38.46,-1090
,满城,115.45,38.95,-1092
,馆陶,115.4,36.47,-1104
,南官,115.37,37.37,-1111
,安国,115.3,38.41,-1128
,崇礼,115.25,40.98,-1140
,新河,115.22,37.53,-1147
,深泽,115.2,38.2,-1152
,涿鹿,115.2,40.37,-1152
,丘县,115.18,36.84,-1157
,束鹿,115.18,37.94,-1157
,望都,115.14,38.71,-1166
,广宗,115.14,37.06,-1166
,大名,115.14,36.28,-1166
,完县,115.12,38.84,-1171
,威县,115.08,36.97,-1181
,晋县,115.03,38.03,-1193
,巨鹿,115.03,37.22,-1193
,宣化,115.03,40.63,-1193
,平乡,115.02,37.06,-1195
,唐县,114.97,38.75,-1207
,无极,114.96,38.16,-1210
,魏县,114.94,36.37,-1214
,广平,114.94,36.49,-1214
,曲周,114.92,36.78,-1219
,宁普,114.9,37.62,-1224
,张家口,114.87,40.82,-1231
,藁城,114.84,38.03,-1238
,肥乡,114.8,36.56,-1248
,赵县,114.78,37.76,-1253
,隆尧,114.75,37.35,-1260
,万全,114.73,40.84,-1265
,南和,114.71,37,-1270
,张北,114.7,41.15,-1272
,曲阳,114.68,38.62,-1277
,成安,114.68,36.43,-1277
,任县,114.68,37.11,-1277
,柏乡,114.68,37.49,-1277
,涞源,114.67,39.37,-1279
,新乐,114.67,38.33,-1279
,栾城,114.64,38.87,-1286
,临漳,114.62,36.35,-1291
,康保,114.6,41.87,-1296
,高邑,114.58,37.62,-1301
,正定,114.56,38.13,-1306
,行唐,114.54,38.42,-1310
,蔚县,114.53,39.83,-1313
,沙河,114.52,36.94,-1315
,元氏,114.5,37.74,-1320
,临城,114.5,37.43,-1320
,内丘,114.5,37.28,-1320
,永年,114.5,36.77,-1320
,石家庄,114.48,38.03,-1325
,邢台,114.48,37.05,-1325
,邯郸,114.47,36.6,-1327
,怀安,114.38,40.67,-1349
,灵寿,114.38,38.31,-1349
,磁县,114.37,36.37,-1351
,赞皇,114.35,37.65,-1356
,平山,114.24,38.2,-1382
,武安,114.2,36.7,-1392
,阜平,114.18,38.85,-1397
,阳原,114.15,40.12,-1404
,井陉,114.13,38.03,-1409
,获鹿,114.03,38.08,-1433
,定县,114.02,38.52,-1435
,尚义,113.95,41.05,-1452
,鸡泽,113.85,36.95,-1476
,涉县,113.67,36.57,-1519
山东省,荣成,122.41,37.16,578
,威海,122.1,37.5,504
,文登,122.05,37.2,492
,牟平,121.59,37.38,382
,乳山,121.52,36.89,365
,烟台,121.39,37.52,334
,福山,121.27,37.49,305
,海阳,121.17,36.76,281
,栖霞,120.83,37.28,199
,蓬莱,120.75,37.8,180
,长岛,120.73,37.91,175
,莱阳,120.71,36.97,170
,莱西,120.53,36.86,127
,黄县,120.51,37.64,122
,即墨,120.45,36.38,108
,崂山,120.42,36.15,101
,招远,120.38,37.35,91
,青岛,120.33,36.07,79
,胶县,120,36.28,0
,平度,119.97,36.77,-7
,胶南,119.97,35.88,-7
,掖县,119.93,37.18,-17
,高密,119.75,36.38,-60
,日照,119.46,35.42,-130
,诸城,119.42,35.99,-139
,昌邑,119.41,36.86,-142
,潍县,119.22,36.77,-187
,五莲,119.2,35.74,-192
,安丘,119.2,36.42,-192
,潍坊,119.1,36.62,-216
,昌乐,118.83,36.69,-281
,莒南,118.83,35.17,-281
,营县,118.83,35.57,-281
,临沭,118.73,34.89,-305
,寿光,118.73,36.86,-305
,沂水,118.64,35.78,-326
,垦利,118.54,37.59,-350
,临朐,118.53,36.5,-353
,东营,118.49,37.46,-362
,沂南,118.47,35.54,-367
,高都,118.47,36.69,-367
,广饶,118.41,37.04,-382
,青州,118.4,36.4,-384
,临沂,118.35,35.05,-396
,郯城,118.35,34.61,-396
,利津,118.25,37.49,-420
,沂源,118.17,36.18,-439
,沾化,118.14,37.7,-446
,桓台,118.12,36.95,-451
,博兴,118.12,37.12,-451
,淄博,118.05,36.78,-468
,滨州,118.03,37.36,-473
,仓山,118.03,34.84,-473
,滨县,117.97,37.47,-487
,费县,117.97,35.26,-487
,蒙阴,117.95,35.7,-492
,新泰,117.76,35.91,-538
,邹平,117.75,36.89,-540
,新汶,117.67,35.86,-559
,莱芜,117.67,36.19,-559
,高青,117.66,37.18,-562
,平邑,117.63,35.49,-569
,阳信,117.58,37.65,-581
,无棣,117.58,37.73,-581
,枣庄,117.57,34.86,-583
,章丘,117.53,36.72,-593
,庆云,117.37,37.37,-631
,惠民,117.31,37.49,-646
,泗水,117.27,35.65,-655
,乐陵,117.22,37.74,-667
,济阳,117.2,36.97,-672
,滕县,117.17,35.09,-679
,商河,117.15,37.31,-684
,泰安,117.13,36.18,-689
,微山,117.12,34.8,-691
,历城,117.07,36.69,-703
,济南,117,36.65,-720
,曲阜,116.98,35.59,-725
,邹县,116.97,35.39,-727
,临邑,116.86,37.2,-754
,兖州,116.83,35.54,-761
,宁津,116.8,37.64,-768
,宁阳,116.8,35.76,-768
,齐河,116.76,36.79,-778
,肥城,116.76,36.24,-778
,长清,116.73,36.55,-785
,禹城,116.66,36.95,-802
,鱼台,116.65,35,-804
,济宁,116.59,35.38,-818
,陵县,116.58,37.34,-821
,汶上,116.49,35.71,-842
,平阴,116.46,36.29,-850
,平原,116.44,37.16,-854
,嘉祥,116.34,35.41,-878
,金乡,116.32,35.07,-883
,东平,116.3,35.91,-888
,德州,116.29,37.45,-890
,茌平,116.27,36.58,-895
,高唐,116.23,36.86,-905
,东阿,116.23,36.32,-905
,梁山,116.1,35.8,-936
,巨野,116.08,35.38,-941
,武城,116.08,37.2,-941
,单县,116.07,34.82,-943
,夏津,116,36.95,-960
,聊城,115.97,36.45,-967
,郓城,115.94,35.59,-974
,成武,115.88,34.97,-989
,阳谷,115.78,36.11,-1013
,临清,115.72,36.68,-1027
,莘县,115.67,36.24,-1039
,定陶,115.57,35.07,-1063
,曹县,115.53,34.83,-1073
,鄄城,115.5,35.57,-1080
,冠县,115.45,35.47,-1092
,荷泽,115.43,35.24,-1097
,东明,115.08,35.31,-1181
浙江省,嵊四,122.45,30.72,588
,普陀,122.3,29.97,552
,岱山,122.2,30.26,528
,定海,122.11,30.03,506
,象山,121.8,29.48,432
,镇海,121.72,29.96,413
,宁波,121.56,29.86,374
,鄞县,121.56,29.86,374
,椒江,121.44,28.67,346
,宁海,121.42,29.3,341
,奉化,121.41,29.66,338
,三门,121.38,29.11,331
,温岭,121.36,28.36,326
,黄岩,121.27,28.64,305
,慈溪,121.23,30.18,295
,玉环,121.23,28.14,295
,余姚,121.16,30.04,278
,临海,121.13,28.8,271
,洞头,121.12,27.84,269
,天台,121.03,29.15,247
,平湖,121.02,30.7,245
,乐清,120.94,28.14,226
,海盐,120.92,30.53,221
,嘉善,120.92,30.84,221
,新昌,120.89,29.49,214
,上虞,120.87,30.03,209
,嵊县,120.81,29.6,194
,嘉兴,120.76,30.77,182
,仙居,120.73,28.85,175
,海宁,120.69,30.53,166
,永喜,120.68,28.16,163
,瓯海,120.65,28.01,156
,温州,120.65,28.01,156
,瑞安,120.62,27.8,149
,缙云,120.6,28.66,144
,绍兴,120.58,30.01,139
,平阳,120.55,27.68,132
,桐乡,120.54,30.64,130
,苍南,120.36,27.53,86
,余杭,120.3,30.43,72
,青田,120.28,28.45,67
,萧山,120.25,30.16,60
,诸暨,120.23,29.71,55
,东阳,120.23,29.27,55
,杭州,120.19,30.26,46
,湖州,120.1,30.86,24
,文成,120.08,27.08,19
,德清,120.08,30.54,19
,义乌,120.06,29.32,14
,永康,120.02,28.92,5
,富阳,119.95,30.07,-12
,丽水,119.92,28.45,-19
,长兴,119.91,30.01,-22
,浦江,119.88,29.46,-29
,武义,119.81,28.9,-46
,临安,119.72,30.23,-67
,泰顺,119.7,27.57,-72
,安吉,119.68,30.68,-77
,桐庐,119.64,29.8,-86
,金华,119.64,29.12,-86
,云和,119.56,28.12,-106
,兰溪,119.48,29.19,-125
,松阳,119.48,28.46,-125
,建德,119.27,29.49,-175
,遂昌,119.25,28.59,-180
,龙泉,119.13,28.08,-209
,庆无,119.06,27.61,-226
,淳安,119.05,29.61,-228
,衢州,118.88,28.97,-269
,江山,118.61,28.74,-334
,常山,118.5,28.9,-360
,开化,118.39,29.15,-386
四川省,通江,108.24,31.95,-2822
,百沙,108.18,32,-2837
,万源,108.06,32.07,-2866
,开江,107.87,31.1,-2911
,宜汉,107.71,31.39,-2950
,达县,107.49,31.23,-3002
,大竹,107.21,30.75,-3070
,平昌,107.11,31.59,-3094
,渠县,106.94,30.85,-3134
,邻水,106.91,30.36,-3142
,南江,106.83,32.36,-3161
,华云,106.74,30.41,-3182
,巴中,106.73,31.86,-3185
,广安,106.61,30.48,-3214
,营山,106.57,31.07,-3223
,蓬安,106.44,31.04,-3254
,岳池,106.43,30.55,-3257
,仪陇,106.38,31.52,-3269
,旺苍,106.33,32.25,-3281
,武胜,106.3,30.38,-3288
,南充,106.06,30.8,-3346
,南部,106.03,31.34,-3353
,阆中,105.97,31.75,-3367
,苍溪,105.96,31.75,-3370
,光元,105.86,32.44,-3394
,西充,105.84,31.01,-3398
,古蔺,105.79,28.03,-3410
,合江,105.78,28.79,-3413
,蓬溪,105.74,30.78,-3422
,遂宁,105.58,30.52,-3461
,泸县,105.46,28.96,-3490
,剑阁,105.45,32.03,-3492
,叙水,105.44,28.19,-3494
,泸州,105.39,28.91,-3506
,纳溪,105.38,28.77,-3509
,盐亭,105.35,31.23,-3516
,射洪,105.31,30.9,-3526
,安岳,105.3,30.12,-3528
,隆昌,105.25,29.64,-3540
,青川,105.21,32.59,-3550
,梓潼,105.16,31.64,-3562
,三台,105.06,31.1,-3586
,兴文,105.06,28.36,-3586
,江安,105.06,28.71,-3586
,内江,105.04,29.59,-3590
,乐至,105.02,30.3,-3595
,富顺,104.97,29.24,-3607
,南溪,104.96,28.87,-3610
,双流,104.94,30.57,-3614
,长宁,104.91,28.6,-3622
,资中,104.85,29.81,-3636
,琪县,104.81,28.38,-3646
,绵阳,104.73,31.48,-3665
,威远,104.7,29.57,-3672
,江油,104.7,31.8,-3672
,中江,104.68,31.06,-3677
,资阳,104.6,30.19,-3696
,宜宾,104.56,29.77,-3706
,简阳,104.53,30.38,-3713
,筠连,104.53,28.16,-3713
,高县,104.52,28.4,-3715
,平武,104.52,32.42,-3715
,北川,104.44,31.89,-3734
,安县,104.41,31.64,-3742
,德阳,104.37,31.13,-3751
,金堂,104.32,30.88,-3763
,广汉,104.25,30.99,-3780
,南坪,104.19,33.23,-3794
,绵竹,104.19,31.32,-3794
,什邡,104.16,31.13,-3802
,屏由,104.15,28.68,-3804
,新都,104.13,30.82,-3809
,仁寿,104.09,30,-3818
,井研,104.06,29.67,-3826
,成都,104.06,30.67,-3826
,沐川,103.98,28.96,-3845
,彭县,103.94,30.99,-3854
,犍为,103.93,29.21,-3857
,茂汶,103.89,31.67,-3866
,郫县,103.86,30.8,-3874
,彭由,103.83,30.22,-3881
,青神,103.81,29.86,-3886
,眉由,103.81,30.05,-3886
,温江,103.81,30.97,-3886
,新津,103.78,30.42,-3893
,乐由,103.73,29.59,-3905
,崇庆,103.69,30.63,-3914
,雷波,103.62,28.21,-3931
,汶川,103.61,31.46,-3934
,松潘,103.61,32.64,-3934
,灌县,103.61,31.04,-3934
,夹江,103.59,29.75,-3938
,大邑,103.53,30.58,-3953
,丹棱,103.53,30.04,-3953
,马边,103.53,28.87,-3953
,娥眉,103.5,29.62,-3960
,邛崃,103.47,30.42,-3967
,洪雅,103.38,29.95,-3989
,蒲江,103.29,30.2,-4010
,峨边,103.25,29.23,-4020
,金阳,103.22,27.73,-4027
,理县,103.16,31.42,-4042
,美姑,103.14,28.33,-4046
,金口,103.13,29.24,-4049
,名山,103.06,30.09,-4066
,雅安,102.97,29.97,-4087
,黑水,102.95,32.06,-4092
,若尔盖,102.94,33.62,-4094
,芦山,102.91,30.17,-4102
,宝兴,102.84,30.36,-4118
,昭觉,102.83,28.03,-4121
,荣经,102.81,29.79,-4126
,布拖,102.8,27.7,-4128
,天全,102.78,30.09,-4133
,宁南,102.76,27.07,-4138
,甘洛,102.74,28.96,-4142
,汉源,102.66,29.4,-4162
,红原,102.55,31.79,-4188
,会东,102.55,26.74,-4188
,普格,102.52,27.38,-4195
,越西,102.49,28.66,-4202
,喜德,102.42,28.33,-4219
,石棉,102.38,29.21,-4229
,小金,102.34,30.97,-4238
,西昌,102.29,27.92,-4250
,泸定,102.25,29.92,-4260
,马尔康,102.22,31.92,-4267
,会理,102.21,26.67,-4270
,冕宁,102.15,28.58,-4284
,来易,102.15,26.9,-4284
,德昌,102.15,27.4,-4284
,金川,102.03,31.48,-4313
,康定,101.95,30.04,-4332
,丹巴,101.87,30.85,-4351
,阿坝,101.72,31.93,-4387
,盐边,101.56,26.9,-4426
,九龙,101.53,29.01,-4433
,盐源,101.51,27.42,-4438
,木里,101.25,27.9,-4500
,道孚,101.14,30.99,-4526
,雅江,101,30.03,-4560
,壤塘,100.97,32.3,-4567
,炉霍,100.65,31.38,-4644
,色达,100.35,32.3,-4716
,稻城,100.31,29.04,-4726
,新龙,100.28,30.96,-4733
,理塘,100.28,30.03,-4733
,甘孜,99.96,31.64,-4810
,乡城,99.78,28.93,-4853
,得荣,99.25,28.71,-4980
,巴塘,99,30,-5040
,白玉,98.83,32.23,-5081
,德格,98.57,31.81,-5143
,石渠,98.06,33.01,-5266
河南省,永城,116.37,33.94,-871
,夏邑,116.13,34.22,-929
,虞城,115.87,34.4,-991
,台前,115.83,36,-1001
,固始,115.68,32.17,-1037
,商丘,115.65,34.44,-1044
,鹿邑,115.48,33.86,-1085
,范县,115.46,35.9,-1090
,商城,115.42,31.81,-1099
,淮滨,115.41,32.44,-1102
,宁陵,115.31,34.44,-1126
,柘城,115.29,34.08,-1130
,南乐,115.21,36.08,-1150
,郸城,115.17,33.63,-1159
,民权,115.13,34.65,-1169
,清丰,115.1,35.89,-1176
,沈丘,115.06,33.41,-1186
,睢县,115.04,34.46,-1190
,潢川,115.04,32.13,-1190
,濮阳,114.98,35.71,-1205
,新蔡,114.97,32.75,-1207
,光山,114.91,32.02,-1222
,项城,114.9,33.44,-1224
,淮阳,114.88,33.74,-1229
,内黄,114.88,35.95,-1229
,太康,114.85,34.06,-1236
,新县,114.83,31.62,-1241
,兰考,114.81,34.69,-1246
,杞县,114.77,34.56,-1255
,息县,114.72,32.35,-1267
,长垣,114.67,35.19,-1279
,周口,114.63,33.63,-1289
,平舆,114.62,32.97,-1291
,商水,114.59,33.54,-1298
,浚县,114.54,35.67,-1310
,罗山,114.53,32.21,-1313
,滑县,114.52,35.57,-1315
,西华,114.5,33.79,-1320
,通许,114.46,34.48,-1330
,扶沟,114.38,34.05,-1349
,正阳,114.38,32.62,-1349
,安阳,114.35,36.1,-1356
,开封,114.35,34.79,-1356
,汝南,114.35,33,-1356
,汤阴,114.35,35.92,-1356
,上蔡,114.26,33.25,-1378
,延津,114.19,35.14,-1394
,尉氏,114.17,34.41,-1399
,鄢县,114.17,34.11,-1399
,淇县,114.17,35.6,-1399
,鹤壁,114.17,35.9,-1399
,信阳,114.08,32.13,-1421
,汲县,114.05,35.44,-1428
,封丘,114.04,35.03,-1430
,驻马店,114.02,32.98,-1435
,确山,114.02,32.83,-1435
,漯河,114.02,33.56,-1435
,西平,114,33.38,-1440
,中牟,114,34.73,-1440
,郾城,113.98,33.6,-1445
,遂平,113.98,33.15,-1445
,原阳,113.96,35.05,-1450
,临颖,113.94,33.81,-1454
,新乡,113.85,35.31,-1476
,林县,113.81,36.06,-1486
,许昌,113.81,34.02,-1486
,长葛,113.77,34.22,-1495
,辉县,113.77,35.46,-1495
,新郑,113.71,34.4,-1510
,郑州,113.65,34.76,-1524
,获嘉,113.63,35.27,-1529
,舞阳,113.58,33.44,-1541
,禹县,113.47,34.16,-1567
,襄城,113.46,33.86,-1570
,修武,113.42,35.24,-1579
,桐柏,113.4,32.37,-1584
,武陟,113.38,35.1,-1589
,密县,113.35,34.51,-1596
,荥阳,113.35,34.79,-1596
,叶县,113.35,33.62,-1596
,泌阳,113.31,32.72,-1606
,平顶山,113.29,33.75,-1610
,焦作,113.21,35.24,-1630
,郏县,113.19,33.98,-1634
,温贺,113.06,34.94,-1666
,博爱,113.05,35.16,-1668
,宝丰,113.04,33.86,-1670
,登封,113.02,34.46,-1675
,方城,112.98,33.25,-1685
,巩县,112.96,34.76,-1690
,社旗,112.92,33.05,-1699
,沁阳,112.92,35.08,-1699
,鲁山,112.88,33.74,-1709
,唐河,112.83,32.7,-1721
,临汝,112.83,34.17,-1721
,偃师,112.77,34.73,-1735
,孟县,112.77,34.92,-1735
,济源,112.57,35.08,-1783
,南阳,112.53,33.01,-1793
,汝阳,112.46,34.16,-1810
,洛阳,112.44,34.7,-1814
,伊川,112.42,34.43,-1819
,孟津,112.42,34.84,-1819
,南召,112.4,33.49,-1824
,新野,112.36,32.51,-1834
,镇平,112.23,33.03,-1865
,宜阳,112.15,34.51,-1884
,新安,112.14,34.75,-1886
,邓县,112.08,32.68,-1901
,嵩县,112.07,34.14,-1903
,义马,111.92,34.73,-1939
,内乡,111.83,33.05,-1961
,渑池,111.75,34.76,-1980
,洛宁,111.65,34.39,-2004
,栾川,111.6,33.81,-2016
,西峡,111.5,33.31,-2040
,淅川,111.47,33.14,-2047
,陕县,111.19,34.76,-2114
,三门峡,111.19,34.76,-2114
,卢氏,111.03,34.06,-2153
,灵宝,110.85,34.52,-2196
辽宁省,桓仁,125.33,41.28,1279
,新宾,125.02,41.72,1205
,清原,124.9,42.13,1176
,宽甸,124.77,40.75,1145
,西丰,124.7,42.77,1128
,丹东,124.37,40.13,1049
,东沟,124.13,39.97,991
,昌图,124.13,42.8,991
,凤城,124.05,40.47,972
,开原,124.03,42.53,967
,抚顺,123.97,41.97,953
,铁岭,123.85,42.32,924
,本溪,123.73,41.3,895
,铁法,123.5,42.48,840
,沈阳,123.38,41.8,811
,法库,123.37,42.52,809
,灯塔,123.34,41.43,802
,康平,123.33,42.75,799
,岫岩,123.25,40.3,780
,辽阳,123.17,41.28,761
,庄河,122.97,39.7,713
,鞍山,122.85,41.12,684
,新民,122.83,42,679
,海城,122.75,40.85,660
,辽中,122.7,41.52,648
,长海,122.58,39.28,619
,彰武,122.52,42.42,605
,台安,122.4,41.4,576
,盖县,122.37,40.42,569
,营口,122.18,40.65,523
,黑山,122.12,41.7,509
,大洼,122.06,41,494
,盘山,122.03,41.02,487
,复县,121.97,39.63,473
,新金,121.95,39.55,468
,北镇,121.8,41.6,432
,金县,121.7,39.13,408
,阜新,121.65,42,396
,大连,121.62,38.92,389
,锦县,121.35,41.17,324
,义县,121.22,41.55,293
,锦州,121.15,41.13,276
,锦西,120.83,40.77,199
,北票,120.75,41.82,180
,兴城,120.68,40.63,163
,朝阳,120.42,41.58,101
,绥中,120.32,40.35,77
,建昌,119.78,40.82,-53
,建平,119.63,41.38,-89
,凌源,119.37,41.27,-151
江苏省,启东,121.66,31.8,398
,如东,121.18,32.33,283
,海门,121.15,31.89,276
,太仓,121.1,31.45,264
,昆山,120.95,31.39,228
,南通,120.86,32.01,206
,常熟,120.74,31.64,178
,吴江,120.63,31.16,151
,吴县,120.62,31.32,149
,苏州,120.62,31.32,149
,如皋,120.56,32.39,134
,沙洲,120.55,31.86,132
,海安,120.45,32.57,108
,大丰,120.45,33.19,108
,东台,120.31,32.84,74
,无锡,120.29,31.59,70
,射阳,120.26,33.77,62
,江阴,120.26,31.91,62
,靖江,120.26,32.03,62
,泰县,120.15,32.51,36
,盐城,120.13,33.38,31
,泰兴,120.02,32.16,5
,武进,119.95,31.78,-12
,常州,119.95,31.79,-12
,泰州,119.9,32.49,-24
,滨海,119.84,34.01,-38
,宜兴,119.82,31.36,-43
,兴化,119.82,32.93,-43
,扬中,119.81,32.24,-46
,阜宁,119.79,33.78,-50
,建湖,119.77,33.46,-55
,响水,119.56,34.2,-106
,金坛,119.56,31.74,-106
,江都,119.55,32.43,-108
,丹阳,119.55,32,-108
,溧阳,119.48,31.43,-125
,高邮,119.45,32.78,-132
,镇江,119.44,32.2,-134
,丹徒,119.44,32.2,-134
,邗江,119.42,32.39,-139
,扬州,119.42,32.39,-139
,灌南,119.36,34.09,-154
,宝应,119.32,33.23,-163
,涟水,119.26,33.77,-178
,灌云,119.23,34.3,-185
,连云港,119.16,34.59,-202
,句容,119.16,31.95,-202
,仪征,119.16,32.27,-202
,淮安,119.15,33.5,-204
,赣榆,119.11,34.83,-214
,淮阴,119.02,33.62,-235
,金湖,119.02,33.01,-235
,清江,119.02,33.59,-235
,溧水,119.02,31.65,-235
,高淳,118.87,31.32,-271
,洪泽,118.85,33.28,-276
,江宁,118.83,31.95,-281
,六合,118.83,32.36,-281
,沭阳,118.79,34.12,-290
,南京,118.78,32.04,-293
,东海,118.75,34.54,-300
,泗阳,118.68,33.73,-317
,江浦,118.62,32.07,-331
,新沂,118.33,34.38,-401
,宿迁,118.3,33.96,-408
,泗洪,118.23,33.46,-425
,盱眙,118.05,33,-468
,邳县,117.97,34.3,-487
,睢宁,117.94,33.89,-494
,铜山,117.2,34.26,-672
,徐州,117.2,34.26,-672
,沛县,116.93,34.73,-737
,丰县,116.57,34.79,-823
港澳台,宜兰,121.75,24.75,420
,基隆,121.73,25.14,415
,台北,121.5,25.05,360
,桃园,121.3,25,312
,新竹,120.96,24.81,230
,台中,120.67,24.15,161
,高雄,120.37,22.64,89
,台南,120.19,22.98,46
,香港,114.1,22.2,-1416
,澳门,113.33,22.13,-1601
安徽省,广德,119.41,30.89,-142
,郎溪,119.17,31.14,-199
,天长,119,32.68,-240
,宁国,118.95,30.62,-252
,宣城,118.73,31.95,-305
,绩溪,118.57,30.07,-343
,旌得,118.53,30.28,-353
,当涂,118.49,31.55,-362
,马鞍山,118.48,31.56,-365
,来安,118.44,32.44,-374
,歙县,118.44,29.88,-374
,泾县,118.41,30.68,-382
,芜湖,118.38,31.33,-389
,和县,118.37,31.7,-391
,南陵,118.32,30.91,-403
,滁州,118.31,32.33,-406
,屯溪,118.31,29.72,-406
,全椒,118.27,32.1,-415
,繁昌,118.21,31.07,-430
,休宁,118.19,29.81,-434
,太平,118.13,30.28,-449
,含山,118.11,31.7,-454
,嘉山,117.98,32.78,-485
,黟县,117.92,29.93,-499
,泗县,117.89,33.49,-506
,巢湖,117.87,31.62,-511
,五河,117.87,33.14,-511
,巢县,117.87,31.62,-511
,青阳,117.84,30.64,-518
,铜陵,117.82,30.93,-523
,无为,117.75,31.3,-540
,祁门,117.7,29.86,-552
,定远,117.68,32.52,-557
,吴壁,117.55,33.55,-588
,贵池,117.48,30.66,-605
,石台,117.48,30.19,-605
,肥东,117.47,31.89,-607
,凤阳,117.4,32.86,-624
,蚌埠,117.34,32.93,-638
,固镇,117.32,33.33,-643
,卢江,117.29,31.23,-650
,合肥,117.27,31.86,-655
,纵阳,117.21,30.69,-670
,怀远,117.19,32.95,-674
,长丰,117.16,32.47,-682
,肥西,117.15,31.7,-684
,安庆,117.03,30.52,-713
,东至,116.99,30.08,-722
,淮南,116.98,32.62,-725
,宿州,116.97,33.63,-727
,宿县,116.97,33.63,-727
,桐城,116.94,31.04,-734
,舒城,116.94,31.45,-734
,萧县,116.93,34.19,-737
,寿县,116.78,32.57,-773
,淮北,116.77,33.97,-775
,濉溪,116.76,33.92,-778
,毫县,116.76,33.86,-778
,凤台,116.71,32.68,-790
,望江,116.69,30.12,-794
,怀宁,116.63,30.41,-809
,蒙城,116.55,33.25,-828
,潜山,116.53,30.62,-833
,六安,116.49,31.73,-842
,岳西,116.36,30.84,-874
,砀山,116.34,34.42,-878
,霍山,116.32,31.38,-883
,太湖,116.27,30.42,-895
,霍丘,116.27,32.32,-895
,颖上,116.26,32.62,-898
,涡阳,116.21,33.49,-910
,利辛,116.19,33.12,-914
,宿松,116.13,30.15,-929
,金寨,115.87,31.67,-991
,阜阳,115.81,32.89,-1006
,太和,115.61,33.16,-1054
,阜南,115.6,32.63,-1056
,界首,115.34,33.24,-1118
,临泉,115.24,33.06,-1142
吉林省,珲春,130.35,42.85,2484
,图们,129.83,42.98,2359
,汪清,129.75,43.32,2340
,延吉,129.52,42.93,2285
,和龙,129,42.52,2160
,安图,128.3,42.58,1992
,敦化,128.18,43.35,1963
,长白,128.17,41.43,1961
,蛟河,127.33,43.75,1759
,抚松,127.27,42.33,1745
,舒兰,126.97,44.4,1673
,九台,126.83,44.15,1639
,靖宇,126.8,42.38,1632
,桦甸,126.72,42.97,1613
,永吉,126.57,43.87,1577
,吉林,126.57,43.87,1577
,榆树,126.55,44.83,1572
,浑江,126.4,41.97,1536
,集安,126.17,41.15,1481
,磐石,126.03,42.93,1447
,辉南,126.03,42.68,1447
,通化,125.92,41.49,1421
,柳河,125.7,40.88,1368
,双阳,125.68,43.53,1363
,德惠,125.68,44.52,1363
,海龙,125.65,42.53,1356
,东丰,125.5,42.68,1320
,长春,125.35,43.88,1284
,伊通,125.32,43.33,1277
,农安,125.15,44.45,1236
,辽源,125.15,42.97,1236
,怀德,124.82,43.5,1157
,扶余,124.82,45.2,1157
,四平,124.37,43.17,1049
,梨树,124.33,43.32,1039
,大安,124.18,45.5,1003
,乾安,124.02,45,965
,长岭,123.97,44.3,953
,双辽,123.5,43.52,840
,通榆,123.13,44.82,751
,白城,122.82,45.63,677
,洮安,122.75,45.35,660
福建省,福鼎,120.2,27.34,48
,霞浦,120,26.89,0
,柘荣,119.89,27.25,-26
,平潭,119.78,25.51,-53
,福安,119.65,27.09,-84
,罗源,119.55,26.49,-108
,连江,119.53,26.2,-113
,长乐,119.52,25.96,-115
,宁德,119.52,26.65,-115
,寿宁,119.5,27.47,-120
,福清,119.39,25.73,-146
,周宁,119.36,27.12,-154
,福州,119.3,26.08,-168
,闽侯,119.14,26.16,-206
,莆田,119,25.44,-240
,屏南,118.98,26.92,-245
,永泰,118.95,25.88,-252
,闽清,118.86,26.21,-274
,政和,118.85,27.38,-276
,惠安,118.78,25.04,-293
,松溪,118.77,27.53,-295
,吉田,118.74,26.59,-302
,仙游,118.7,25.37,-312
,泉州,118.58,24.93,-341
,晋江,118.57,24.82,-343
,浦城,118.55,27.92,-348
,南安,118.39,24.96,-386
,金门,118.34,24.43,-398
,建瓯,118.32,27.05,-403
,永春,118.3,25.34,-408
,德化,118.24,25.5,-422
,安溪,118.18,25.07,-437
,龙溪,118.17,26.18,-439
,南平,118.16,26.65,-442
,同安,118.15,24.74,-444
,厦门,118.1,24.46,-456
,崇安,118.02,27.76,-475
,大田,117.83,25.69,-521
,顺昌,117.8,26.8,-528
,龙海,117.79,24.44,-530
,沙县,117.77,26.41,-535
,长泰,117.75,24.62,-540
,三明,117.61,26.23,-574
,漳浦,117.61,24.12,-574
,华安,117.53,25,-593
,邵武,117.48,27.34,-605
,将乐,117.45,26.73,-612
,东山,117.4,23.72,-624
,漳平,117.4,25.3,-624
,永安,117.37,25.97,-631
,漳州,117.35,24.52,-636
,南靖,117.35,24.51,-636
,云霄,117.34,23.99,-638
,光泽,117.34,27.54,-638
,平和,117.3,24.38,-648
,明溪,117.18,26.36,-677
,诏安,117.16,23.73,-682
,泰宁,117.15,26.92,-684
,龙岩,117.01,25.12,-718
,建宁,116.82,26.85,-763
,清流,116.81,26.12,-766
,永定,116.81,24.76,-766
,连城,116.75,25.72,-780
,宁化,116.64,26.26,-806
,上杭,116.41,25.43,-862
,长汀,116.37,25.85,-871
,武平,116.1,25.11,-936
山西省,灵丘,114.2,39.47,-1392
,天镇,114.08,40.42,-1421
,阳高,113.72,40.38,-1507
,昔阳,113.68,37.62,-1517
,浑源,113.68,39.7,-1517
,平定,113.62,37.79,-1531
,阳泉,113.57,37.85,-1543
,和顺,113.55,37.33,-1548
,平顺,113.43,36.19,-1577
,黎城,113.4,36.56,-1584
,盂县,113.37,38.01,-1591
,左权,113.35,37.07,-1596
,五台,113.32,38.72,-1603
,大同,113.3,40.12,-1608
,繁峙,113.28,39.2,-1613
,陵川,113.27,35.78,-1615
,广灵,113.27,39.75,-1615
,壶关,113.23,35.11,-1625
,潞城,113.22,36.33,-1627
,应县,113.18,39.58,-1637
,寿阳,113.17,37.88,-1639
,怀仁,113.1,39.82,-1656
,长治,113.08,36.18,-1661
,襄垣,113.02,36.55,-1675
,代县,112.97,39.07,-1687
,榆社,112.97,37.08,-1687
,定襄,112.95,38.5,-1692
,高平,112.88,35.48,-1709
,长子,112.87,36.13,-1711
,屯留,112.87,36.32,-1711
,武乡,112.83,36.83,-1721
,晋城,112.83,35.52,-1721
,山阴,112.82,39.52,-1723
,榆次,112.72,37.68,-1747
,忻县,112.7,38.38,-1752
,原平,112.7,38.73,-1752
,沁县,112.68,36.75,-1757
,左云,112.67,40.02,-1759
,阳曲,112.65,38.05,-1764
,太谷,112.53,37.42,-1793
,太原,112.53,37.87,-1793
,朔县,112.42,39.32,-1819
,阳城,112.38,35.84,-1829
,祁县,112.33,37.36,-1841
,右玉,112.33,40.18,-1841
,清徐,112.33,37.62,-1841
,沁源,112.32,36.5,-1843
,宁武,112.28,39,-1853
,安泽,112.2,36.15,-1872
,平遥,112.18,37.2,-1877
,神池,112.17,39.1,-1879
,沁水,112.15,35.67,-1884
,交城,112.14,37.55,-1886
,平鲁,112.12,39.53,-1891
,文水,112.02,37.42,-1915
,静乐,111.9,38.37,-1944
,古县,111.9,36.29,-1944
,介休,111.88,37.03,-1949
,浮山,111.83,35.97,-1961
,五寨,111.82,38.93,-1963
,孝义,111.8,37.12,-1968
,娄烦,111.78,38.05,-1973
,灵石,111.77,36.83,-1975
,汾阳,111.75,37.27,-1980
,霍县,111.72,36.57,-1987
,翼城,111.68,35.73,-1997
,洪洞,111.68,36.25,-1997
,垣曲,111.63,35.3,-2009
,岚县,111.62,38.28,-2011
,绛县,111.58,35.48,-2021
,岢岚,111.58,38.7,-2021
,汾西,111.53,36.63,-2033
,临汾,111.5,36.08,-2040
,偏关,111.47,39.45,-2047
,侯马,111.45,35.03,-2052
,襄汾,111.43,35.86,-2057
,曲沃,111.33,35.63,-2081
,方由,111.24,37.86,-2102
,夏县,111.22,35.12,-2107
,兴县,111.22,38.47,-2107
,新绛,111.22,35.62,-2107
,交口,111.2,36.97,-2112
,闻喜,111.2,35.37,-2112
,平陆,111.2,34.12,-2112
,河曲,111.17,39.38,-2119
,中阳,111.17,37.37,-2119
,离石,111.13,37.53,-2129
,保德,111.09,38.01,-2138
,蒲县,111.07,36.42,-2143
,运城,110.97,35.03,-2167
,稷山,110.97,35.6,-2167
,临县,110.95,37.95,-2172
,柳林,110.85,37.45,-2196
,万荣,110.83,110.83,-2201
,石楼,110.83,37,-2201
,乡宁,110.8,35.97,-2208
,临猗,110.78,35.15,-2213
,大宁,110.72,36.47,-2227
,河津,110.7,35.58,-2232
,芮城,110.68,34.71,-2237
,吉县,110.65,36.12,-2244
,永和,110.64,36.62,-2246
,永济,110.42,34.88,-2299
湖北省,黄梅,115.93,30.09,-977
,英山,115.57,30.75,-1063
,广济,115.56,29.85,-1066
,罗川,115.37,30.79,-1111
,蕲春,115.3,30.24,-1128
,浠水,115.22,30.46,-1147
,阳新,115.22,29.83,-1147
,黄石,115.09,30.2,-1178
,麻城,115,31.17,-1200
,黄冈,114.87,30.44,-1231
,鄂城,114.87,30.38,-1231
,新洲,114.8,31.84,-1248
,红安,114.61,31.29,-1294
,通山,114.52,29.6,-1315
,黄陂,114.36,30.88,-1354
,武昌,114.33,30.35,-1361
,武汉,114.31,30.52,-1366
,咸宁,114.28,29.87,-1373
,大悟,114.09,31.56,-1418
,崇阳,114.04,29.54,-1430
,汉阳,114.02,30.57,-1435
,孝感,113.91,31.92,-1462
,嘉鱼,113.91,29.97,-1462
,蒲圻,113.85,29.71,-1476
,应山,113.81,31.62,-1486
,通城,113.8,29.23,-1488
,云梦,113.73,31.02,-1505
,安陆,113.69,31.25,-1514
,应城,113.6,30.94,-1536
,汉川,113.59,30.63,-1538
,广水,113.48,31.37,-1565
,随州,113.22,31.42,-1627
,京山,113.11,31.03,-1654
,监利,112.9,29.83,-1704
,钟祥,112.58,31.17,-1781
,石首,112.41,29.73,-1822
,沙市,112.24,30.32,-1862
,荆门,112.19,31.02,-1874
,江陵,112.18,30.35,-1877
,襄樊,112.14,30.02,-1886
,宜昌,111.3,30.7,-2088
,十堰,110.79,32.65,-2210
黑龙江省,抚远,134.15,48.33,3396
,饶河,134,46.78,3360
,虎林,133.97,45.75,3353
,同江,132.5,47.67,3000
,宝清,132.17,46.33,2921
,富锦,132.02,47.23,2885
,密山,131.85,45.53,2844
,绥滨,131.83,47.3,2839
,双鸭山,131.17,46.65,2681
,绥芬河,131.17,44.38,2681
,集贤,131.13,46.7,2671
,东宁,131.12,44.07,2669
,鸡东,131.04,45.27,2650
,鸡四,130.97,45.3,2633
,萝北,130.83,47.58,2599
,七台河,130.83,45.82,2599
,桦川,130.68,47.02,2563
,桦南,130.53,46.25,2527
,勃利,130.53,45.75,2527
,穆棱,130.5,44.9,2520
,佳木斯,130.35,46.83,2484
,鹤岗,130.3,47.33,2472
,林口,130.23,45.3,2455
,嘉荫,130,48.93,2400
,汤源,129.92,46.73,2381
,牡丹江,129.58,44.6,2299
,依兰,129.55,46.33,2292
,宁安,129.47,44.35,2273
,海林,129.35,44.57,2244
,伊春,128.92,47.73,2141
,方正,128.8,45.83,2112
,通河,128.7,45.98,2088
,逊克,128.42,49.57,2021
,延寿,128.35,45.47,2004
,铁力,128.08,47.98,1939
,木兰,128.03,45.95,1927
,尚志,127.95,45.22,1908
,黑河,127.53,50.22,1807
,爱辉,127.53,50.22,1807
,庆安,127.5,46.87,1800
,孙吴,127.5,49.22,1800
,宾县,127.48,45.75,1795
,巴彦,127.38,46.08,1771
,五常,127.17,44.93,1721
,绥棱,127.12,47.22,1709
,绥化,127,46.63,1680
,海伦,126.97,47.47,1673
,阿城,126.95,45.52,1668
,通北,126.8,49.76,1632
,哈尔滨,126.63,45.75,1591
,呼玛,126.6,51.72,1584
,呼兰,126.58,46,1579
,望奎,126.5,46.83,1560
,北安,126.5,48.22,1560
,双城,126.32,45.53,1517
,兰西,126.3,46.28,1512
,克东,126.22,48.03,1493
,德都,126.17,48.5,1481
,青岗,126.13,46.68,1471
,拜泉,126.07,47.62,1457
,肇东,125.98,46.07,1435
,明水,125.88,47.18,1411
,克山,125.87,48.03,1409
,安达,125.33,46.42,1279
,依安,125.3,47.92,1272
,肇州,125.25,45.72,1260
,嫩江,125.2,49.17,1248
,肇源,125.07,45.53,1217
,大庆,125.03,46.58,1207
,林甸,124.87,47.18,1169
,讷河,124.85,48.48,1164
,塔河,124.7,52.32,1128
,杜尔伯特,124.44,46.86,1066
,富裕,124.4,47.8,1056
,加格达奇,124.07,50.42,977
,齐齐哈尔,123.97,47.33,953
,甘南,123.48,47.9,835
,泰来,123.45,46.4,828
,龙江,123.18,47.35,763
,漠河,122.37,53.48,569
江西省,玉山,118.25,28.68,-420
,广丰,118.2,28.45,-432
,上饶,117.97,28.47,-487
,婺源,117.83,29.25,-521
,铅山,117.71,28.32,-550
,横峰,117.62,28.42,-571
,德兴,117.58,28.96,-581
,弋阳,117.43,28.42,-617
,景德镇,117.22,29.3,-667
,贵溪,117.2,28.3,-672
,乐平,117.12,28.97,-691
,万年,117.08,28.7,-701
,资溪,117.06,27.7,-706
,鹰潭,117.02,28.23,-715
,黎川,116.91,27.3,-742
,余江,116.82,28.22,-763
,金溪,116.77,27.92,-775
,于干,116.69,28.7,-794
,波阳,116.68,29,-797
,南城,116.62,27.56,-811
,东乡,116.61,28.23,-814
,彭泽,116.56,29.9,-826
,南丰,116.52,27.22,-835
,抚州,116.34,28,-878
,石城,116.32,26.34,-883
,广昌,116.32,26.84,-883
,临川,116.29,27.95,-890
,进贤,116.26,28.37,-898
,湖口,116.23,29.75,-905
,宜黄,116.2,27.55,-912
,都昌,116.19,29.29,-914
,崇仁,116.05,27.75,-948
,星子,116.03,29.47,-953
,瑞金,116.02,25.89,-955
,宁都,116,26.46,-960
,九江,115.97,29.71,-967
,南昌,115.89,28.68,-986
,乐安,115.82,27.44,-1003
,永修,115.82,29.04,-1003
,新建,115.8,28.69,-1008
,会昌,115.79,25.58,-1010
,德安,115.75,29.33,-1020
,丰城,115.7,28.19,-1032
,瑞昌,115.65,29.68,-1044
,寻乌,115.64,24.96,-1046
,安义,115.55,28.86,-1068
,清江,115.54,28.07,-1070
,永丰,115.42,27.33,-1099
,安远,115.41,25.15,-1102
,新干,115.4,27.77,-1104
,于都,115.39,25.96,-1106
,奉新,115.38,28.71,-1109
,高安,115.38,28.42,-1109
,靖安,115.37,28.88,-1111
,兴国,115.33,26.32,-1121
,峡江,115.15,27.56,-1164
,吉水,115.14,27.22,-1166
,武宁,115.09,29.26,-1178
,定南,115.02,24.7,-1195
,吉安,114.97,27.12,-1207
,信丰,114.94,25.39,-1214
,新余,114.92,27.81,-1219
,赣州,114.92,25.85,-1219
,上高,114.91,28.25,-1222
,泰和,114.88,26.81,-1229
,龙南,114.79,24.91,-1250
,宜丰,114.78,28.4,-1253
,万安,114.77,26.47,-1255
,南康,114.75,25.66,-1260
,分宜,114.68,27.82,-1277
,安福,114.62,27.39,-1291
,上犹,114.55,25.8,-1308
,修永,114.55,29.04,-1308
,全南,114.53,24.76,-1313
,遂川,114.5,26.33,-1320
,万载,114.44,28.11,-1334
,宜春,114.38,27.81,-1349
,铜鼓,114.37,28.53,-1351
,大余,114.36,25.39,-1354
,崇义,114.31,25.69,-1366
,永新,114.23,26.96,-1385
,井冈山,114.17,26.57,-1399
,赣县,114.02,25.85,-1435
,宁冈,113.97,26.71,-1447
,莲花,113.94,27.14,-1454
,萍乡,113.85,27.6,-1476
内蒙古,莫力达瓦达斡尔族自治旗,124.5,48.47,1080
,鄂伦春自治旗,123.7,50.58,888
,阿荣旗,123.5,48.13,840
,科尔沁左翼中旗,123.28,44.13,787
,布特哈旗,122.78,47.98,667
,科尔沁左翼后旗,122.35,42.97,564
,通辽,122.28,43.63,547
,乌兰浩特,122.08,46.07,499
,科尔沁右翼前旗,122.03,46.12,487
,库伦旗,121.75,42.72,420
,额尔古纳左旗,121.52,50.8,365
,突泉,121.5,45.4,360
,科尔沁右翼中旗,121.47,45.05,353
,开鲁,121.32,43.62,317
,扎鲁特旗,120.87,44.55,209
,喜桂图旗,120.73,49.3,175
,奈曼旗,120.65,42.85,156
,额尔古纳右旗,120.08,50.45,19
,阿鲁科尔沁旗,120.05,43.97,12
,敖汉旗,119.87,42.3,-31
,鄂温克族自治旗,119.75,49.13,-60
,海拉尔,119.73,49.12,-65
,陈巴尔虎旗,119.45,49.33,-132
,巴林左旗,119.35,43.98,-156
,宁城,119.32,41.62,-163
,翁牛特旗,119,42.97,-240
,赤峰,118.87,42.28,-271
,喀喇沁旗,118.67,41.95,-319
,巴林右旗,118.65,43.52,-324
,新巴尔虎右旗,118.23,48.22,-425
,林西,118.02,43.62,-475
,西乌珠穆沁旗,117.58,44.6,-581
,克什克腾旗,117.48,43.28,-605
,满洲里,117.47,49.58,-607
,东乌珠穆沁旗,116.97,45.53,-727
,新巴尔虎左旗,116.82,48.67,-763
,多伦,116.48,42.18,-845
,阿巴哈纳尔旗,116.08,43.95,-941
,正蓝旗,116.02,42.25,-955
,太仆寺旗,115.3,41.9,-1128
,正镶白旗,115,42.32,-1200
,阿巴嘎旗,114.97,44.03,-1207
,化德,114,41.9,-1440
,兴和,113.97,40.88,-1447
,镶黄旗,113.83,42.25,-1481
,苏尼特左旗,113.7,43.85,-1512
,商都,113.53,41.58,-1553
,察哈尔右翼前旗,113.18,40.78,-1637
,丰镇,113.15,40.45,-1644
,察哈尔右翼后旗,113.15,41.85,-1644
,集宁,113.08,41.03,-1661
,苏尼特右旗,112.95,42.47,-1692
,察哈尔右翼中旗,112.62,41.28,-1771
,卓资,112.52,40.93,-1795
,凉城,112.48,40.52,-1805
,二连浩特,111.96,43.65,-1930
,和林格尔,111.8,40.4,-1968
,四子王旗,111.68,41.37,-1997
,清水河,111.65,39.92,-2004
,呼和浩特,111.65,40.82,-2004
,武川,111.42,41.12,-2059
,托克托,111.15,40.28,-2124
,上默特左旗,111.13,40.72,-2129
,准格尔旗,111.13,39.68,-2129
,上默特右旗,110.52,40.55,-2275
,达尔罕茂明安联合旗,110.42,41.72,-2299
,固阳,110.03,41.03,-2393
,达拉特旗,110.02,40.42,-2395
,包头,110,40.58,-2400
,伊克昭盟,110,39.83,-2400
,东胜县,110,39.83,-2400
,伊金霍洛旗,109.77,39.25,-2455
,乌审旗,109.03,38.38,-2633
,杭锦旗,108.7,39.83,-2712
,乌拉特前旗,108.65,40.75,-2724
,乌拉特后旗,108.52,40.88,-2755
,乌拉特中旗,108.52,41.55,-2755
,五原,108.28,41.12,-2813
,鄂托克旗,107.97,39.12,-2887
,鄂托克前旗,107.43,38.18,-3017
,临河,107.37,40.78,-3031
,杭锦后旗,107.12,40.88,-3091
,磴口,106.98,40.33,-3125
,乌海,106.82,39.67,-3163
,阿拉善左旗,105.68,38.85,-3437
,阿拉善右旗,101.68,39.2,-4397
,额济纳旗,100.88,41.9,-4589
湖南省,宜章,113.96,25.41,-1450
,桂东,113.91,25.08,-1462
,酃县,113.77,26.49,-1495
,汝城,113.68,25.54,-1517
,浏阳,113.63,28.16,-1529
,平江,113.56,29.71,-1546
,茶陵,113.54,26.79,-1550
,醴陵,113.5,27.67,-1560
,临湘,113.42,29.48,-1579
,资兴,113.39,25.95,-1586
,攸县,113.32,27.01,-1603
,安仁,113.27,26.71,-1615
,株洲,113.16,27.83,-1642
,永兴,113.11,26.13,-1654
,岳阳,113.09,29.37,-1658
,泪罗,113.05,28.8,-1668
,郴州,113,25.79,-1680
,长沙,113,28.21,-1680
,郴县,113,25.79,-1680
,衡东,112.95,27.1,-1692
,湘潭,112.91,27.87,-1702
,湘阴,112.87,28.68,-1711
,衡山,112.86,27.25,-1714
,来阳,112.84,26.41,-1718
,望城,112.8,28.37,-1728
,桂阳,112.72,25.73,-1747
,衡南,112.61,26.89,-1774
,衡阳（大，东）,112.61,26.89,-1774
,华容,112.55,29.52,-1788
,临武,112.55,25.27,-1788
,宁乡,112.55,28.27,-1788
,湘乡,112.5,27.75,-1800
,南县,112.39,29.37,-1826
,衡阳（小，西）,112.39,26.98,-1826
,常宁,112.39,26.38,-1826
,沅江,112.36,28.83,-1834
,嘉禾,112.35,25.56,-1836
,益阳,112.33,28.6,-1841
,新田,112.21,25.91,-1870
,双峰,112.18,27.44,-1877
,蓝山,112.16,25.37,-1882
,安乡,112.16,29.41,-1882
,祁东,112.14,26.8,-1886
,桃江,112.11,28.51,-1894
,汉寿,111.97,28.9,-1927
,娄底,111.96,27.71,-1930
,宁远,111.95,25.6,-1932
,津市,111.87,29.64,-1951
,祁阳,111.85,26.59,-1956
,江华,111.79,24.97,-1970
,澧县,111.75,29.65,-1980
,邵东,111.73,27.25,-1985
,常德,111.69,29.05,-1994
,涟源,111.66,27.68,-2002
,双牌,111.64,25.96,-2006
,临澧,111.64,29.44,-2006
,零陵,111.63,26.22,-2009
,永州,111.63,26.22,-2009
,道县,111.57,25.52,-2023
,邵阳,111.5,27.22,-2040
,桃源,111.47,28.9,-2047
,新邵,111.46,27.33,-2050
,冷水江,111.41,27.68,-2062
,石门,111.35,29.59,-2076
,江永,111.33,25.41,-2081
,新化,111.29,27.73,-2090
,东安,111.28,26.41,-2093
,安化,111.2,28.38,-2112
,慈利,111.09,29.41,-2138
,隆回,111.04,27.13,-2150
,新宁,110.84,26.44,-2198
,泸溪,110.73,28.29,-2225
,武冈,110.61,26.73,-2254
,溆浦,110.57,27.92,-2263
,洞口,110.57,27.06,-2263
,大庸,110.48,29.13,-2285
,沅陵,110.39,28.46,-2306
,城步,110.3,26.37,-2328
,辰溪,110.18,28.02,-2357
,桑植,110.16,29.38,-2362
,黔阳,110.14,27.33,-2366
,绥宁,110.14,25.59,-2366
,洪江,109.96,27.1,-2410
,怀化,109.95,27.52,-2412
,古丈,109.91,28.62,-2422
,永顺,109.84,29,-2438
,麻阳,109.79,27.87,-2450
,芷江,109.78,27.44,-2453
,通道,109.77,26.16,-2455
,吉首,109.71,28.3,-2470
,会同,109.71,26.86,-2470
,靖县,109.68,26.57,-2477
,保靖,109.64,28.7,-2486
,花垣,109.46,28.59,-2530
,凤凰,109.43,27.92,-2537
,龙山,109.42,29.64,-2539
,新晃,109.16,27.37,-2602
新疆维吾尔自治区,伊吾,94.65,43.28,-6084
,哈密,93.44,42.78,-6374
,巴里坤,93,43.6,-6480
,青河,90.37,46.71,-7111
,木垒,90.34,43.8,-7118
,鄯善,90.25,42.82,-7140
,奇台,89.52,44.02,-7315
,富蕴,89.44,47.05,-7334
,吐鲁番,89.19,42.91,-7394
,吉木萨尔,89.14,44,-7406
,托克逊,88.63,42.77,-7529
,阿勒泰,88.14,47.86,-7646
,阜康,87.94,44.14,-7694
,乌鲁木齐,87.68,43.77,-7757
,米泉,87.68,43.97,-7757
,福海,87.51,47.15,-7798
,昌吉,87.31,44.05,-7846
,布尔津,86.92,47.7,-7939
,呼图壁,86.92,44.18,-7939
,和硕,86.84,42.23,-7958
,焉耆,86.55,42.05,-8028
,博湖,86.53,41.95,-8033
,哈巴河,86.41,48.05,-8062
,和静,86.35,42.31,-8076
,尉梨,86.24,41.36,-8102
,玛纳斯,86.22,44.28,-8107
,库尔勒,86.06,41.68,-8146
,石河子,85.94,44.27,-8174
,吉木乃,85.84,47.42,-8198
,沙湾,85.56,44.29,-8266
,和布克赛尔,85.13,46.78,-8369
,奎屯,84.89,44.45,-8426
,伊犁,84.8,44.4,-8448
,克拉玛依,84.77,45.59,-8455
,乌苏,84.62,44.45,-8491
,轮台,84.25,41.77,-8580
,额敏,83.62,46.52,-8731
,托里,83.59,45.92,-8738
,新源,83.27,43.41,-8815
,库车,82.97,41.68,-8887
,塔城,82.96,46.74,-8890
,裕民,82.94,46.21,-8894
,精河,82.92,44.67,-8899
,沙雅,82.9,41.25,-8904
,民丰,82.63,37.07,-8969
,新和,82.63,41.55,-8969
,尼勒克,82.53,43.82,-8993
,巩留,82.23,43.35,-9065
,博乐,82.1,44.93,-9096
,拜城,81.84,41.82,-9158
,特克斯,81.81,43.23,-9166
,于田,81.63,36.86,-9209
,伊宁,81.33,43.91,-9281
,察布察尔,81.12,43.82,-9331
,昭苏,81.08,43.15,-9341
,温泉,81.08,44.95,-9341
,霍城,80.87,44.07,-9391
,策勒,80.78,37.04,-9413
,阿瓦提,80.34,40.64,-9518
,阿克苏,80.29,41.15,-9530
,温宿,80.24,41.29,-9542
,洛浦,80.17,37.12,-9559
,和田,79.94,37.12,-9614
,墨玉,79.74,37.31,-9662
,乌什,79.25,41.22,-9780
,柯平,79.06,40.55,-9826
,巴楚,78.59,39.78,-9938
,阿合奇,78.42,41.91,-9979
,皮山,78.29,37.06,-10010
,麦盖提,77.62,38.95,-10171
,叶城,77.42,37.89,-10219
,泽普,77.26,38.2,-10258
,莎车,77.25,38.45,-10260
,枷师,76.78,39.46,-10373
,乐普湖,76.67,39.23,-10399
,英吉沙,76.17,38.91,-10519
,阿图什,76.12,39.73,-10531
,疏勒,76.05,39.41,-10548
,咯什,75.94,39.52,-10574
,阿克陶,75.94,39.14,-10574
,疏附,75.83,39.42,-10601
,塔什库尔干,75.22,37.76,-10747
,乌恰,75.18,39.7,-10757
广东省,南澳,117.03,23.44,-713
,饶平,116.93,23.7,-737
,澄海,116.8,23.48,-768
,大埔,116.7,24.34,-792
,汕头,116.69,23.39,-794
,潮安,116.63,23.68,-809
,潮州,116.63,23.68,-809
,潮阳,116.61,23.27,-814
,揭阳,116.35,23.55,-876
,惠来,116.29,23.07,-890
,丰顺,116.18,23.78,-917
,蕉岭,116.18,24.66,-917
,普宁,116.17,23.29,-919
,梅县,116.1,24.55,-936
,梅州,116.1,24.55,-936
,平远,115.9,24.59,-984
,陆丰,115.84,22.95,-998
,揭西,115.82,23.45,-1003
,兴宁,115.75,24.15,-1020
,五华,115.75,23.93,-1020
,海丰,115.33,22.98,-1121
,龙川,115.25,24.09,-1140
,紫金,115.18,23.64,-1157
,和平,114.89,24.45,-1226
,惠东,114.7,22.97,-1272
,河源,114.68,23.73,-1277
,连平,114.48,24.39,-1325
,惠州,114.4,23.09,-1344
,惠阳,114.4,23.09,-1344
,南雄,114.33,25.14,-1361
,博罗,114.28,23.18,-1373
,龙门,114.25,23.75,-1380
,新十,114.2,24.09,-1392
,翁源,114.13,24.36,-1409
,始兴,114.08,24.78,-1421
,深圳,114.07,22.62,-1423
,宝安,113.85,22.58,-1476
,增城,113.81,23.13,-1486
,东莞,113.75,23.04,-1500
,仁化,113.73,25.11,-1505
,韶关,113.62,24.84,-1531
,曲江,113.58,24.68,-1541
,从化,113.55,23.57,-1548
,佛岗,113.52,23.86,-1555
,珠海,113.52,22.3,-1555
,英德,113.38,24.17,-1589
,中山,113.38,22.52,-1589
,番禺,113.36,22.95,-1594
,乐昌,113.35,25.14,-1596
,斗门,113.25,22.2,-1620
,顺德,113.24,22.84,-1622
,广州,113.23,23.16,-1625
,花县,113.19,23.4,-1634
,南海,113.11,23.05,-1654
,佛山,113.11,23.05,-1654
,江门,113.06,22.61,-1666
,新会,113.02,22.52,-1675
,清远,113.01,23.7,-1678
,鹤山,112.94,22.76,-1694
,三水,112.89,23.18,-1706
,台山,112.78,22.27,-1733
,高明,112.76,21.71,-1738
,四会,112.68,23.36,-1757
,开平,112.68,22.36,-1757
,阳山,112.65,24.48,-1764
,肇庆,112.44,23.05,-1814
,高要,112.44,23.05,-1814
,广宁,112.43,23.14,-1817
,连县,112.4,24.77,-1824
,恩平,112.29,22.21,-1850
,连南,112.28,24.77,-1853
,新兴,112.2,22.68,-1872
,怀集,112.18,23.93,-1877
,连山,112.07,24.59,-1903
,云浮,112.02,22.93,-1915
,阳江,111.95,21.85,-1932
,阳春,111.78,22.16,-1973
,德庆,111.75,23.15,-1980
,罗定,111.56,22.77,-2026
,郁南,111.51,23.23,-2038
,封开,111.48,23.45,-2045
,电白,110.99,21.52,-2162
,信宜,110.9,22.36,-2184
,茂名,110.88,21.68,-2189
,高州,110.83,21.95,-2201
,吴川,110.78,21.43,-2213
,化州,110.59,21.64,-2258
,湛江,110.3,21.2,-2328
,廉江,110.27,21.63,-2335
,遂溪,110.24,21.39,-2342
,徐闻,110.17,20.34,-2359
,海康,110.07,20.91,-2383
,雷州,110.04,20.54,-2390
贵州省,铜仁,109.21,27.73,-2590
,天柱,109.2,26.89,-2592
,万山,109.2,27.52,-2592
,松桃,109.18,28.17,-2597
,锦屏,109.18,26.7,-2597
,黎平,109.14,26.24,-2606
,玉屏,108.91,27.24,-2662
,从江,108.9,25.76,-2664
,江口,108.82,27.68,-2683
,岑巩,108.72,27.21,-2707
,三穗,108.68,26.98,-2717
,剑河,108.58,26.64,-2741
,榕江,108.5,25.94,-2760
,沿河,108.48,28.57,-2765
,镇远,108.41,27.06,-2782
,印江,108.41,28.02,-2782
,台江,108.32,26.68,-2803
,师阡,108.24,27.52,-2822
,思南,108.23,27.94,-2825
,德江,108.13,28.27,-2849
,施秉,108.11,27.03,-2854
,雷山,108.07,26.38,-2863
,凯里,107.97,26.59,-2887
,黄平,107.89,26.89,-2906
,余庆,107.88,27.22,-2909
,荔波,107.88,25.42,-2909
,务川,107.87,28.54,-2911
,三都,107.86,26,-2914
,丹寨,107.79,26.21,-2930
,凤冈,107.72,27.97,-2947
,道真,107.6,28.89,-2976
,麻江,107.58,26.49,-2981
,平塘,107.55,25.83,-2988
,独山,107.54,25.84,-2990
,都匀,107.53,26.72,-2993
,福泉,107.51,26.7,-2998
,湄潭,107.5,27.76,-3000
,瓮安,107.48,27.08,-3005
,正安,107.43,28.56,-3017
,贵定,107.22,26.58,-3067
,绥阳,107.19,27.95,-3074
,龙里,106.98,26.46,-3125
,开阳,106.95,27.06,-3132
,遵义,106.9,27.7,-3144
,桐梓,106.8,28.16,-3168
,罗甸,106.74,25.43,-3182
,息烽,106.73,27.1,-3185
,贵阳,106.71,26.57,-3190
,惠水,106.66,26.14,-3202
,修文,106.59,26.84,-3218
,清镇,106.46,26.56,-3250
,长顺,106.45,26.03,-3252
,仁怀,106.41,27.81,-3262
,平坝,106.26,26.42,-3298
,金沙,106.22,27.46,-3307
,习水,106.2,28.33,-3312
,望谟,106.09,25.17,-3338
,紫云,106.06,25.75,-3346
,黔西,106.04,27.03,-3350
,安顺,105.92,26.25,-3379
,册亭,105.79,25,-3410
,织金,105.76,26.66,-3418
,普定,105.75,26.32,-3420
,镇宁,105.75,26.08,-3420
,赤水,105.69,28.57,-3434
,贞丰,105.63,25.39,-3449
,关岭,105.62,25.94,-3451
,大方,105.61,27.16,-3454
,安龙,105.49,25.11,-3482
,六枝,105.47,26.21,-3487
,钠雍,105.38,26.77,-3509
,毕节,105.29,27.32,-3530
,晴龙,105.21,25.83,-3550
,兴仁,105.18,25.44,-3557
,普安,104.96,25.79,-3610
,兴义,104.91,25.1,-3622
,水城,104.82,26.58,-3643
,六盘水,104.82,26.58,-3643
,赫章,104.71,27.13,-3670
,盘县,104.64,25.81,-3686
,威宁,104.28,26.87,-3773
云南省,富宁,105.6,23.62,-3456
,广南,105.09,24.05,-3578
,威信,105.05,27.85,-3588
,镇雄,104.86,27.42,-3634
,麻栗坡,104.71,23.12,-3670
,西畴,104.68,23.42,-3677
,陆良,104.64,25.04,-3686
,马关,104.4,23.01,-3744
,永富,104.38,28.62,-3749
,砚山,104.35,23.62,-3756
,罗平,104.3,24.88,-3768
,盐津,104.28,28.08,-3773
,富源,104.24,25.67,-3782
,文山,104.24,23.37,-3782
,丘北,104.19,24.03,-3794
,宣威,104.09,26.24,-3818
,彝良,104.06,27.61,-3826
,河口,103.98,22.52,-3845
,绥江,103.97,28.58,-3847
,师宗,103.97,24.85,-3847
,大关,103.91,27.74,-3862
,沽益,103.82,25.62,-3883
,曲靖,103.79,25.51,-3890
,泸西,103.76,24.52,-3898
,昭通,103.7,29.32,-3912
,屏边,103.67,22.68,-3919
,永善,103.63,28.22,-3929
,马龙,103.61,25.41,-3934
,鲁甸,103.54,27.21,-3950
,弥勒,103.43,24.41,-3977
,蒙自,103.41,23.36,-3982
,会泽,103.27,26.41,-4015
,寻甸,103.25,25.56,-4020
,金平,103.24,22.77,-4022
,路南,103.24,24.77,-4022
,开远,103.23,23.7,-4025
,宜良,103.12,24.9,-4051
,嵩明,103.03,25.35,-4073
,华宁,102.93,24.26,-4097
,巧家,102.92,26.9,-4099
,澄江,102.91,24.68,-4102
,元阳,102.81,23.17,-4126
,呈贡,102.79,24.9,-4130
,建水,102.79,23.64,-4130
,通海,102.75,24.09,-4140
,江川,102.73,24.27,-4145
,昆明,102.73,25.04,-4145
,晋宁,102.58,24.68,-4181
,玉溪,102.52,24.35,-4195
,富民,102.48,25.21,-4205
,石屏,102.48,23.73,-4205
,禄劝,102.45,25.58,-4212
,安宁,102.44,24.95,-4214
,个旧,102.43,23.35,-4217
,红河,102.42,23.35,-4219
,绿春,102.42,23.01,-4219
,峨山,102.38,24.16,-4229
,武定,102.36,25.55,-4234
,易门,102.15,24.67,-4284
,禄丰,102.08,25.15,-4301
,元江,102,23.59,-4320
,新平,101.98,24.06,-4325
,江城,101.88,22.58,-4349
,元谋,101.85,25.7,-4356
,黑江,101.71,23.4,-4390
,永仁,101.7,26.07,-4392
,双柏,101.67,24.68,-4399
,牟定,101.58,25.32,-4421
,勐腊,101.56,21.48,-4426
,楚雄,101.54,25.01,-4430
,大姚,101.34,25.73,-4478
,南华,101.26,25.21,-4498
,华坪,101.24,26.63,-4502
,姚安,101.24,25.4,-4502
,普洱,101,22.79,-4560
,镇沅,100.88,23.9,-4589
,景东,100.82,24.42,-4603
,宁蒗,100.82,27.29,-4603
,景洪,100.79,22,-4610
,永胜,100.76,26.71,-4618
,景谷,100.71,23.5,-4630
,祥云,100.56,25.48,-4666
,宾川,100.55,25.82,-4668
,弥渡,100.52,25.34,-4675
,南涧,100.51,25.04,-4678
,勐海,100.5,21.95,-4680
,巍山,100.33,25.23,-4721
,丽江,100.25,26.86,-4740
,下关,100.24,25.45,-4742
,大理,100.19,25.69,-4754
,鹤庆,100.18,26.55,-4757
,云县,100.12,24.44,-4771
,临沦,100.09,23.88,-4778
,漾濞,99.98,25.68,-4805
,澜沦,99.97,22.55,-4807
,洱源,99.94,26.1,-4814
,凤庆,99.92,24.58,-4819
,剑川,99.88,26.53,-4829
,双江,99.85,23.45,-4836
,中甸,99.72,27.78,-4867
,昌宁,99.61,24.82,-4894
,孟连,99.55,22.32,-4908
,永平,99.52,25.45,-4915
,西盟,99.47,22.73,-4927
,耿马,99.41,23.56,-4942
,云龙,99.39,25.9,-4946
,兰坪,99.29,26.49,-4970
,维西,99.27,27.15,-4975
,永德,99.25,24.03,-4980
,沧源,99.24,23.15,-4982
,保由,99.18,25.12,-4997
,施甸,99.15,24.69,-5004
,镇康,99.02,23.92,-5035
,碧江,98.95,26.55,-5052
,德钦,98.93,28.49,-5057
,福贡,98.92,26.89,-5059
,泸水,98.82,25.97,-5083
,龙陵,98.7,24.58,-5112
,贡山,98.65,27.73,-5124
,潞西,98.6,24.41,-5136
,腾冲,98.51,25.01,-5158
,梁河,98.3,24.78,-5208
,畹町,98.08,24.08,-5261
,陇川,97.96,24.33,-5290
,盈江,97.93,24.69,-5297
,瑞丽,97.83,24,-5321
西藏自治区,芒康,98.68,29.64,-5117
,贡觉,98.29,30.86,-5210
,左贡,97.9,29.68,-5304
,察雅,97.56,30.69,-5386
,察隅,97.49,28.62,-5402
,吕都,97.14,31.18,-5486
,八宿,96.95,30.04,-5532
,类乌齐,96.57,31.2,-5623
,洛隆,95.76,30.81,-5818
,波密,95.75,29.92,-5820
,丁青,95.63,31.42,-5849
,墨脱,95.26,29.22,-5938
,边坝,94.69,30.94,-6074
,林芝,94.25,29.59,-6180
,米林,94.13,29.18,-6209
,巴青,94.1,31.96,-6216
,索县,93.71,31.92,-6310
,比如,93.68,31.53,-6317
,嘉黎,93.46,30.63,-6370
,工布江达,93.25,29.92,-6420
,朗县,93.11,29.06,-6454
,加查,92.6,29.09,-6576
,隆子,92.42,28.46,-6619
,聂荣,92.3,31.08,-6648
,曲松,92.11,29.08,-6694
,那曲,92.1,31.47,-6696
,桑日,92,29.26,-6720
,错那,91.91,27.98,-6742
,墨竹工卡,91.77,29.77,-6775
,乃东,91.76,29.18,-6778
,安多,91.68,32.29,-6797
,穷结,91.65,29.04,-6804
,措美,91.4,28.49,-6864
,达孜,91.39,29.63,-6866
,扎囊,91.26,29.22,-6898
,林周,91.24,30.2,-6902
,拉萨,91.11,29.97,-6934
,当雄,91.05,30.51,-6948
,贡嘎,90.96,29.25,-6970
,堆龙德庆,90.96,29.67,-6970
,洛扎,90.83,28.42,-7001
,曲水,90.7,29.39,-7032
,浪卡子,90.33,29.96,-7121
,尼木,90.14,29.44,-7166
,班戈,90.05,31.35,-7188
,仁布,89.77,29.21,-7255
,康马,89.67,28.57,-7279
,江孜,89.63,28.94,-7289
,江达,89.19,31.53,-7394
,白朗,89.16,29.11,-7402
,南木林,89.02,29.71,-7435
,亚东,88.93,27.55,-7457
,日喀则,88.82,29.28,-7483
,申扎,88.7,30.94,-7512
,岗巴,88.5,28.29,-7560
,谢通门,88.25,29.43,-7620
,萨迦,88,28.87,-7680
,定结,87.77,28.38,-7735
,拉孜,87.62,29.1,-7771
,昂仁,87.22,29.3,-7867
,定日,87.11,28.57,-7894
,聂拉木,85.94,28.19,-8174
,萨嘎,85.3,29.38,-8328
,吉隆,85.29,28.94,-8330
,措勤,85.16,31.06,-8362
,仲巴,84.15,29.66,-8604
,改则,84.1,32.33,-8616
,普兰,81.18,30.37,-9317
,革吉,81.13,32.45,-9329
,噶尔,80,32.08,-9600
,扎达,79.76,31.47,-9658
,日上,79.61,33.44,-9694
广西壮族自治区,贺县,111.54,24.44,-2030
,梧州,111.34,23.51,-2078
,钟山,111.3,24.53,-2088
,苍悟,111.22,23.51,-2107
,灌阳,111.14,25.49,-2126
,全州,111.06,25.96,-2146
,岑溪,111,22.95,-2160
,藤县,110.9,23.36,-2184
,恭城,110.81,24.85,-2206
,昭平,110.8,24.18,-2208
,资源,110.66,26.03,-2242
,兴安,110.66,25.6,-2242
,平乐,110.66,24.64,-2242
,蒙山,110.54,24.22,-2270
,容县,110.53,22.87,-2273
,平南,110.4,23.55,-2304
,荔浦,110.38,24.51,-2309
,灵川,110.33,25.42,-2321
,北流,110.33,22.71,-2321
,桂林,110.28,25.29,-2333
,富川,110.26,24.83,-2338
,陆川,110.25,22.33,-2340
,临桂,110.22,25.22,-2347
,金秀,110.18,24.14,-2357
,玉林,110.14,22.64,-2366
,桂平,110.07,23.38,-2383
,龙胜,110.02,25.78,-2395
,博白,109.98,22.27,-2405
,永福,109.98,24.99,-2405
,鹿寨,109.74,24.49,-2462
,象州,109.7,23.98,-2472
,武宜,109.66,23.6,-2482
,贵县,109.6,23.11,-2496
,三江,109.58,25.8,-2501
,浦北,109.56,22.27,-2506
,柳州,109.4,24.33,-2544
,融安,109.37,24.24,-2551
,柳江,109.34,24.27,-2558
,灵山,109.29,22.44,-2570
,来宾,109.24,23.76,-2582
,融水,109.24,25.07,-2582
,柳城,109.24,24.67,-2582
,合浦,109.2,21.33,-2592
,横县,109.2,22.69,-2592
,北海,109.12,21.49,-2611
,罗城,108.9,24.79,-2664
,合山,108.89,23.82,-2666
,宾阳,108.8,23.22,-2688
,忻城,108.66,24.07,-2722
,宜山,108.64,24.47,-2726
,钦州,108.61,21.96,-2734
,上林,108.59,23.44,-2738
,邕宁,108.49,22.74,-2762
,防城,108.35,21.78,-2796
,南宁,108.33,22.84,-2801
,武鸣,108.27,23.17,-2815
,环江,108.26,24.83,-2818
,马山,108.2,23.73,-2832
,都安,108.09,23.94,-2858
,河池,108.06,24.7,-2866
,上思,107.98,22.16,-2885
,扶绥,107.92,22.65,-2899
,隆安,107.68,23.18,-2957
,平果,107.59,23.33,-2978
,南丹,107.54,24.98,-2990
,崇左,107.37,22.42,-3031
,东兰,107.36,24.53,-3034
,巴马,107.25,24.15,-3060
,大新,107.21,22.85,-3070
,天峨,107.16,25.01,-3082
,天等,107.12,23.08,-3091
,田东,107.12,23.62,-3091
,宁明,107.08,22.12,-3101
,凤山,107.05,24.55,-3108
,田阳,106.9,23.75,-3144
,龙州,106.84,22.36,-3158
,凭祥,106.75,22.11,-3180
,百色,106.62,23.91,-3211
,德保,106.6,23.34,-3216
,乐业,106.56,24.78,-3226
,凌云,106.55,24.35,-3228
,靖西,106.41,23.15,-3262
,田林,106.24,24.31,-3302
,那坡,105.85,23.42,-3396
,隆林,105.34,24.8,-3518
,西林,105.08,24.51,-3581
甘肃省,庄宁,108.43,35.5,-2777
,合水,108.02,35.81,-2875
,华池,108,36.44,-2880
,宁县,107.94,35.17,-2894
,庆阳,107.88,36.03,-2909
,灵台,107.61,35.1,-2974
,泾川,107.38,35.31,-3029
,环县,107.33,36.57,-3041
,镇源,107.22,35.7,-3067
,崇信,107.05,35.27,-3108
,平凉,106.68,35.51,-3197
,华亭,106.65,35.21,-3204
,两当,106.28,33.9,-3293
,张家川,106.23,35,-3305
,清水,106.12,34.73,-3331
,徽县,106.11,33.78,-3334
,庄浪,106.06,35.2,-3346
,静宁,105.73,35.51,-3425
,成县,105.7,33.75,-3432
,秦安,105.69,34.89,-3434
,天水,105.69,34.6,-3434
,康县,105.58,33.33,-3461
,甘谷,105.35,34.7,-3516
,西和,105.28,34.02,-3533
,通渭,105.27,35.24,-3535
,礼县,105.15,34.22,-3564
,会宁,105.08,35.72,-3581
,武都,104.94,33.43,-3614
,武山,104.88,34.69,-3629
,靖远,104.71,36.54,-3670
,文县,104.7,32.95,-3672
,陇西,104.61,34.98,-3694
,定西,104.57,35.57,-3703
,漳县,104.48,34.87,-3725
,宕昌,104.38,34.06,-3749
,舟曲,104.38,33.81,-3749
,渭源,104.19,35.17,-3794
,榆中,104.09,35.87,-3818
,景泰,104.05,37.14,-3828
,岷县,104.04,34.41,-3830
,皋兰,103.97,36.32,-3847
,临洮,103.88,35.39,-3869
,兰州,103.73,36.03,-3905
,康乐,103.68,35.39,-3917
,广河,103.54,35.46,-3950
,卓尼,103.54,34.61,-3950
,东乡,103.39,35.68,-3986
,临潭,103.35,34.69,-3996
,永靖,103.34,35.97,-3998
,和政,103.31,35.43,-4006
,永登,103.25,36.73,-4020
,迭部,103.23,34.08,-4025
,临夏,103.22,35.62,-4027
,民勤,103.08,38.62,-4061
,古浪,102.86,37.43,-4114
,积石山,102.85,35.74,-4116
,天祝,102.84,37.24,-4118
,武威,102.61,37.94,-4174
,碌曲,102.5,34.6,-4200
,下河,102.46,35.21,-4210
,玛曲,102.04,33.97,-4310
,永昌,101.94,38.23,-4334
,山丹,101.19,38.79,-4514
,民乐,100.85,38.43,-4596
,张掖,100.46,38.93,-4690
,临泽,100.17,39.14,-4759
,高台,99.84,39.14,-4838
,肃南,99.57,38.86,-4903
,金塔,98.92,39.97,-5059
,酒泉,98.5,39.71,-5160
,玉门,97.58,39.81,-5381
,安西,95.77,40.51,-5815
,肃北,94.89,39.49,-6026
,敦煌,94.71,40.13,-6070
,阿克塞,94.25,38.46,-6180
青海省,民和,102.8,36.3,-4128
,循化,102.46,35.84,-4210
,乐都,102.38,36.49,-4229
,化隆,102.3,36.11,-4248
,平安,102.09,36.47,-4298
,同仁,102,35.54,-4320
,尖扎,102,35.92,-4320
,互助,101.95,36.84,-4332
,西宁,101.74,36.56,-4382
,大通,101.67,36.92,-4399
,河南,101.62,34.75,-4411
,门源,101.62,37.37,-4411
,湟中,101.57,36.49,-4423
,泽库,101.5,35.03,-4440
,贵德,101.47,36.02,-4447
,久治,101.47,33.46,-4447
,湟源,101.28,36.72,-4493
,海晏,100.99,36.89,-4562
,贵南,100.75,35.57,-4620
,班玛,100.73,32.92,-4625
,同德,100.63,35.24,-4649
,共和,100.61,36.27,-4654
,玛沁,100.26,34.49,-4738
,祁连,100.22,38.2,-4747
,刚察,100.17,37.32,-4759
,兴海,99.99,35.6,-4802
,甘德,99.89,33.95,-4826
,达日,99.68,33.74,-4877
,天峻,99.03,37.28,-5033
,乌兰,98.46,36.9,-5170
,玛多,98.26,34.92,-5218
,都兰,98.13,36.3,-5249
,称多,97.12,33.35,-5491
,玉树,96.97,33.03,-5527
,囊谦,96.47,32.23,-5647
,治多,95.6,33.86,-5856
,曲麻菜,95.5,34.52,-5880
,杂多,95.3,32.92,-5928
,格尔木,94.9,36.41,-6024
宁夏回族自治区,盐池,107.41,37.78,-3022
,陶乐,106.69,38.82,-3194
,平罗,106.54,38.91,-3230
,石嘴山,106.39,39.04,-3266
,贺兰,106.35,38.55,-3276
,灵武,106.34,38.1,-3278
,泾源,106.33,35.5,-3281
,固原,106.28,36.01,-3293
,银川,106.27,38.47,-3295
,永宁,106.24,38.28,-3302
,吴忠,106.21,37.99,-3310
,隆德,106.11,35.63,-3334
,青铜峡,106.07,38.02,-3343
,同心,105.94,36.97,-3374
,西吉,105.7,35.97,-3432
,中宁,105.66,37.48,-3442
,海原,105.64,36.56,-3446
,中卫,105.18,37.51,-3557
海南省,文昌,110.72,19.61,-2227
,琼海,110.46,19.25,-2290
,万宁,110.39,18.8,-2306
,海口,110.35,20.02,-2316
,琼山,110.33,19.98,-2321
,定安,110.31,19.68,-2326
,屯昌,110.1,19.36,-2376
,陵水,110.02,18.48,-2395
,澄迈,110,19.75,-2400
,琼中,109.83,19.05,-2441
,保亭,109.7,18.64,-2472
,临高,109.69,19.91,-2474
,儋县,109.57,19.52,-2503
,崖县,109.5,18.25,-2520
,白沙,109.44,19.23,-2534
,三亚,109.31,18.14,-2566
,乐东,109.17,18.73,-2599
,昌江,109.03,19.25,-2633
,东方,108.64,19.09,-2726
陕西省,府谷,111.07,39.05,-2143
,商南,110.88,33.54,-2189
,吴堡,110.73,37.49,-2225
,神木,110.51,38.83,-2278
,佳县,110.48,38.04,-2285
,韩城,110.45,35.47,-2292
,丹凤,110.35,33.71,-2316
,潼关,110.25,34.56,-2340
,绥德,110.24,37.49,-2342
,米脂,110.23,37.78,-2345
,延川,110.18,36.87,-2357
,清涧,110.15,37.11,-2364
,洛南,110.15,34.11,-2364
,宜川,110.15,36.04,-2364
,合阳,110.15,35.24,-2364
,华阴,110.09,34.58,-2378
,白河,110.06,32.83,-2386
,子洲,110.05,37.45,-2388
,延长,110.02,36.59,-2395
,商县,109.96,33.88,-2410
,人荔,109.96,34.82,-2410
,成城,109.93,35.2,-2417
,山阳,109.91,33.55,-2422
,黄龙,109.86,35.6,-2434
,华县,109.77,34.53,-2455
,榆林,109.77,38.3,-2455
,子长,109.65,37.16,-2484
,白水,109.6,35.18,-2496
,蒲城,109.59,34.97,-2498
,镇坪,109.51,31.91,-2518
,渭南,109.5,34.52,-2520
,延安,109.47,36.6,-2527
,洛川,109.42,35.76,-2539
,甘泉,109.37,36.29,-2551
,平利,109.37,32.41,-2551
,富县,109.37,36,-2551
,旬阳,109.35,32.83,-2556
,安寨,109.34,36.88,-2558
,蓝田,109.32,34.17,-2563
,横山,109.32,37.97,-2563
,黄陵,109.27,35.6,-2575
,临潼,109.22,34.38,-2587
,富平,109.17,34.76,-2599
,镇安,109.16,33.45,-2602
,柞水,109.14,33.69,-2606
,铜川,109.11,35.09,-2614
,宜君,109.11,35.43,-2614
,高陵,109.1,34.55,-2616
,安康,109.02,32.7,-2635
,耀县,108.98,34.91,-2645
,长安,108.97,34.18,-2647
,西安,108.95,34.27,-2652
,三原,108.94,34.62,-2654
,岚皋,108.89,32.3,-2666
,泾阳,108.84,34.53,-2678
,靖边,108.79,37.61,-2690
,志丹,108.78,36.84,-2693
,咸阳,108.72,34.36,-2707
,户县,108.61,34.12,-2734
,淳化,108.57,34.81,-2743
,紫阳,108.55,32.56,-2748
,汉阴,108.53,32.9,-2753
,兴平,108.49,34.32,-2762
,礼泉,108.43,34.5,-2777
,旬邑,108.33,35.13,-2801
,宁陕,108.33,33.34,-2801
,石泉,108.26,33.05,-2818
,乾县,108.25,34.54,-2820
,武功,108.22,34.28,-2827
,吴旗,108.22,36.93,-2827
,周至,108.22,34.18,-2827
,永寿,108.14,34.71,-2846
,彬县,108.09,35.04,-2858
,汉中,108.04,33.07,-2870
,佛坪,108,33.55,-2880
,镇巴,107.91,32.56,-2902
,扶风,107.87,34.38,-2911
,长武,107.8,35.22,-2928
,麟游,107.8,34.69,-2928
,西乡,107.77,33,-2935
,眉县,107.76,34.29,-2938
,岐山,107.63,34.46,-2969
,定边,107.59,37.6,-2978
,洋县,107.56,33.23,-2986
,凤翔,107.39,34.53,-3026
,城固,107.32,33.16,-3043
,太白,107.3,34.09,-3048
,宝鸡,107.15,34.38,-3084
,千阳,107.13,34.65,-3089
,留坝,106.95,33.65,-3132
,南郑,106.93,33,-3137
,陇县,106.86,34.91,-3154
,勉县,106.68,33.16,-3197
,凤县,106.51,33.93,-3238
,宁强,106.25,32.82,-3300
,略阳,106.16,33.34,-3322
